City_ID,City,Cloudiness,Country,Date,Humidity,Lat,Lng,Max Temp,Wind Speed
0,cayenne,0,GF,1566877462,83,4.94,-52.33,78.8,6.04
1,ushuaia,40,AR,1566877380,51,-54.81,-68.31,39.2,10.29
2,rikitea,100,PF,1566877410,60,-23.12,-134.97,69.19,7.0
3,faanui,29,PF,1566877431,70,-16.48,-151.75,78.91,9.53
4,hilo,1,US,1566877407,62,19.71,-155.08,84.2,5.82
5,goderich,100,CA,1566877886,78,43.74,-81.71,68.0,27.85
6,hobart,40,AU,1566877378,41,-42.88,147.33,59.0,21.92
7,severo-kurilsk,100,RU,1566877434,97,50.68,156.12,48.67,13.96
8,tuatapere,74,NZ,1566877427,64,-46.13,167.69,55.99,8.99
9,sangar,91,RU,1566877856,44,63.92,127.47,70.63,1.5
10,torbay,90,CA,1566877454,35,47.66,-52.73,57.2,9.17
11,kahului,40,US,1566877361,62,20.89,-156.47,84.2,19.46
12,bredasdorp,95,ZA,1566877410,81,-34.53,20.04,51.8,6.93
13,kutum,100,SD,1566877474,72,14.2,24.66,69.91,0.72
14,thompson,90,CA,1566877460,93,55.74,-97.86,46.4,19.46
15,kavieng,29,PG,1566877439,71,-2.57,150.8,83.77,10.29
16,port alfred,89,ZA,1566877455,77,-33.59,26.89,60.01,5.99
17,port lincoln,0,AU,1566877411,68,-34.72,135.86,55.15,12.75
18,vredendal,0,ZA,1566877887,73,-31.68,18.49,55.69,6.02
19,tandalti,79,SD,1566877887,79,13.01,31.87,74.95,8.01
20,hermanus,67,ZA,1566877410,88,-34.42,19.24,51.01,1.01
21,jumla,15,NP,1566877887,71,29.28,82.18,64.51,2.37
22,kouroussa,59,GN,1566877887,98,10.65,-9.88,68.47,5.93
23,arraial do cabo,3,BR,1566877430,87,-22.97,-42.02,65.59,15.88
24,codrington,40,AU,1566877485,44,-28.95,153.24,77.0,9.17
25,albany,40,US,1566877211,77,42.65,-73.75,61.0,0.78
26,roverud,0,NO,1566877887,93,60.25,12.05,51.8,3.71
27,mahebourg,75,MU,1566877241,60,-20.41,57.7,71.6,17.22
28,rawson,0,AR,1566877502,43,-43.3,-65.11,45.79,11.18
29,kornwestheim,77,DE,1566877888,100,48.86,9.19,71.01,1.12
30,bahia blanca,100,AR,1566877876,91,-38.72,-62.27,53.89,12.46
31,airai,76,TL,1566877419,44,-8.93,125.41,83.05,5.75
32,rocha,5,UY,1566877462,95,-34.48,-54.34,55.87,3.49
33,punta arenas,40,CL,1566877307,71,-53.16,-70.91,32.0,17.22
34,bluff,0,AU,1566877412,30,-23.58,149.07,78.73,8.81
35,nikolskoye,0,RU,1566877409,82,59.7,30.79,59.0,6.71
36,poronaysk,0,RU,1566877888,64,49.22,143.1,70.81,8.03
37,matane,75,CA,1566877888,82,48.83,-67.52,59.0,4.7
38,jutai,4,BR,1566877889,99,-1.71,-47.89,71.35,3.4
39,busselton,27,AU,1566877419,36,-33.64,115.35,66.99,14.63
40,avarua,66,CK,1566877408,78,-21.21,-159.78,71.6,5.82
41,anda,0,CN,1566877889,57,46.41,125.33,73.33,8.41
42,vaini,75,IN,1566877421,94,15.34,74.49,71.6,6.93
43,coahuayana,100,MX,1566877481,90,18.62,-100.35,73.15,2.01
44,kodiak,40,US,1566877471,100,39.95,-94.76,69.01,6.67
45,mataura,100,NZ,1566877424,64,-46.19,168.86,55.99,8.99
46,orhei,0,MD,1566877890,77,47.39,28.83,60.01,2.64
47,tigil,100,RU,1566877890,68,57.8,158.67,60.55,6.42
48,jamestown,13,AU,1566877411,52,-33.21,138.6,55.69,6.31
49,qaanaaq,100,GL,1566877418,96,77.48,-69.36,34.45,9.51
50,kloulklubed,75,PW,1566877414,74,7.04,134.26,86.0,13.87
51,caravelas,74,BR,1566877447,82,-17.73,-39.27,70.99,12.08
52,abbeville,0,FR,1566877890,93,50.11,1.83,69.01,5.82
53,verkh-usugli,100,RU,1566877891,95,52.7,115.17,54.25,7.94
54,madras,1,US,1566877891,39,44.63,-121.13,75.2,8.05
55,kupang,0,ID,1566877891,74,-10.16,123.6,74.95,12.03
56,hithadhoo,63,MV,1566877411,75,-0.6,73.08,82.15,9.1
57,mulege,52,MX,1566877891,61,26.88,-111.98,86.83,2.35
58,karratha,29,AU,1566877421,18,-20.74,116.85,81.97,15.01
59,ribeira grande,39,PT,1566877407,91,38.52,-28.7,72.61,11.43
60,sao felix do xingu,33,BR,1566877892,54,-6.64,-51.99,74.77,1.32
61,yellowknife,75,CA,1566877237,71,62.45,-114.38,53.6,6.93
62,labuhan,100,ID,1566877892,71,-2.54,115.51,83.59,2.64
63,prachuap khiri khan,100,TH,1566877892,95,11.81,99.79,72.43,9.48
64,yulara,0,AU,1566877459,24,-25.24,130.99,66.2,10.29
65,kaman,0,TR,1566877892,55,39.36,33.73,63.07,3.51
66,kilrush,75,IE,1566877892,100,51.96,-8.06,57.99,6.93
67,pimentel,0,BR,1566877893,80,-3.7,-45.5,74.41,4.5
68,saskylakh,100,RU,1566877448,53,71.97,114.09,65.05,13.44
69,chuy,100,UY,1566877145,96,-33.69,-53.46,57.13,4.54
70,osoyoos,20,CA,1566877893,43,49.03,-119.47,69.8,4.7
71,tasiilaq,76,GL,1566877429,87,65.61,-37.64,42.8,8.95
72,sisimiut,100,GL,1566877893,81,66.94,-53.67,43.81,7.78
73,khatanga,100,RU,1566877409,94,71.98,102.47,55.87,5.75
74,maine-soroa,0,NE,1566877894,58,13.21,12.02,80.89,9.22
75,avenal,75,US,1566877894,31,36.0,-120.13,93.2,5.82
76,otane,32,NZ,1566877894,61,-39.89,176.62,53.01,8.01
77,kon tum,83,VN,1566877894,72,14.36,108.0,81.97,0.69
78,poum,0,MK,1566877894,71,41.28,20.71,57.2,2.24
79,kazanskaya,0,RU,1566877895,42,45.41,40.44,70.0,7.72
80,cidreira,100,BR,1566877416,90,-30.17,-50.22,61.63,6.46
81,novoulyanovsk,75,RU,1566877895,76,54.15,48.39,57.2,11.18
82,puerto ayora,22,EC,1566877414,91,-0.74,-90.35,71.01,5.99
83,atuona,0,PF,1566877247,74,-9.8,-139.03,78.19,15.82
84,chokurdakh,100,RU,1566877448,80,70.62,147.9,42.01,6.22
85,digapahandi,100,IN,1566877896,77,19.37,84.57,80.71,1.52
86,mazyr,0,BY,1566877896,82,52.05,29.27,58.39,2.17
87,kapaa,40,US,1566877413,74,22.08,-159.32,87.8,18.34
88,ixtapa,90,MX,1566877896,79,20.71,-105.21,84.2,7.81
89,muros,75,ES,1566877897,93,42.77,-9.06,64.99,5.82
90,binzhou,5,CN,1566877897,57,37.38,117.96,87.01,1.01
91,geraldton,90,CA,1566877452,72,49.72,-86.95,62.6,11.41
92,carballo,75,ES,1566877897,88,43.21,-8.69,66.99,2.24
93,kavaratti,90,IN,1566877443,88,10.57,72.64,78.8,17.05
94,wukari,91,NG,1566877897,96,7.87,9.78,71.89,5.57
95,souillac,0,FR,1566877471,88,45.6,-0.6,69.8,8.05
96,vestmannaeyjar,100,IS,1566877433,86,63.44,-20.27,51.37,23.44
97,lebu,100,ET,1566877428,89,8.96,38.73,55.15,2.1
98,cherskiy,100,RU,1566877454,72,68.75,161.3,53.53,6.06
99,itarema,0,BR,1566877445,83,-2.92,-39.92,75.67,10.4
100,mar del plata,0,AR,1566877417,42,-46.43,-67.52,40.39,19.39
101,ugoofaaru,100,MV,1566877451,75,5.67,73.0,82.33,8.1
102,sinnamary,0,GF,1566877472,77,5.38,-52.96,81.97,19.39
103,kodinar,100,IN,1566877898,83,20.79,70.7,79.45,2.26
104,port-gentil,96,GA,1566877898,89,-0.72,8.78,73.69,9.69
105,paracuru,75,BR,1566877898,69,-3.41,-39.03,80.6,18.34
106,iwaki,75,JP,1566877898,73,37.05,140.89,82.0,5.82
107,alto araguaia,57,BR,1566877899,44,-17.32,-53.22,74.05,8.25
108,constitucion,75,MX,1566877459,35,23.99,-104.67,71.6,5.82
109,the valley,40,AI,1566877899,74,18.22,-63.06,84.2,9.17
110,doha,0,QA,1566877356,75,25.29,51.53,89.6,2.24
111,carnarvon,0,ZA,1566877444,49,-30.97,22.13,40.75,7.87
112,cabra,7,ES,1566877900,88,37.47,-4.43,68.0,3.36
113,pyaozerskiy,21,RU,1566877900,86,65.83,31.17,48.13,4.61
114,port macquarie,15,AU,1566877452,68,-31.43,152.91,72.0,10.29
115,kovur,100,IN,1566877900,55,14.5,79.99,85.57,11.72
116,cape town,75,ZA,1566877133,100,-33.93,18.42,53.01,6.93
117,yumen,0,CN,1566877900,27,40.29,97.04,79.63,17.94
118,dudinka,75,RU,1566877453,93,69.41,86.18,48.2,8.95
119,castro,0,CL,1566877426,100,-42.48,-73.76,37.4,3.36
120,amapa,75,HN,1566877417,79,15.09,-87.97,84.2,4.7
121,launceston,75,AU,1566877482,58,-41.43,147.14,57.0,17.22
122,beidao,43,CN,1566877901,54,34.57,105.89,70.81,9.95
123,tautira,20,PF,1566877487,69,-17.73,-149.15,82.4,6.93
124,paamiut,97,GL,1566877461,87,61.99,-49.67,42.19,8.68
125,sioux lookout,90,CA,1566877406,93,50.1,-91.92,60.8,8.05
126,praia,0,BR,1566877901,67,-20.25,-43.81,62.6,2.24
127,novo aripuana,31,BR,1566877901,68,-5.12,-60.38,77.11,1.59
128,hami,0,CN,1566877432,13,42.84,93.51,85.93,2.57
129,provideniya,90,RU,1566877472,93,64.42,-173.23,53.6,13.42
130,grindavik,75,IS,1566877500,93,63.84,-22.43,50.0,19.46
131,berlevag,75,NO,1566877411,93,70.86,29.09,48.2,1.12
132,mount pleasant,1,US,1566877902,70,33.16,-94.97,88.0,8.25
133,peekskill,5,US,1566877902,93,41.29,-73.92,66.2,2.42
134,redcar,6,GB,1566877902,93,54.62,-1.06,59.0,3.36
135,ilulissat,1,GL,1566877413,41,69.22,-51.1,42.8,12.75
136,saldanha,0,PT,1566877434,74,41.42,-6.55,64.69,1.7
137,ust-tsilma,100,RU,1566877903,93,65.44,52.15,40.75,6.13
138,barrow,100,AR,1566877416,85,-38.31,-60.23,52.81,6.67
139,isangel,75,VU,1566877903,61,-19.55,169.27,80.6,8.05
140,srednekolymsk,100,RU,1566877492,60,67.46,153.71,59.83,7.34
141,luderitz,0,NA,1566877456,62,-26.65,15.16,53.6,13.87
142,tiksi,100,RU,1566877337,96,71.64,128.87,42.55,11.25
143,hofn,100,IS,1566877497,99,64.25,-15.21,37.87,18.66
144,new norfolk,40,AU,1566877422,41,-42.78,147.06,59.0,21.92
145,bilibino,100,RU,1566877475,71,68.06,166.44,52.81,4.03
146,saint george,0,GR,1566877450,72,39.45,22.34,69.8,2.1
147,sulangan,100,PH,1566877904,75,11.14,123.72,81.61,8.52
148,bambous virieux,75,MU,1566877410,60,-20.34,57.76,71.6,17.22
149,irati,69,BR,1566877904,96,-25.47,-50.65,52.81,2.1
150,aklavik,75,CA,1566877904,62,68.22,-135.01,55.4,5.82
151,butaritari,31,KI,1566877414,72,3.07,172.79,85.03,11.23
152,port elizabeth,90,US,1566877424,88,39.31,-74.98,69.01,5.59
153,cabo san lucas,75,MX,1566877377,55,22.89,-109.91,86.0,4.7
154,saint-pierre,0,FR,1566877905,68,48.95,4.24,64.4,4.7
155,elban,84,RU,1566877905,69,50.1,136.51,70.27,7.63
156,saint-philippe,1,CA,1566877431,72,45.36,-73.48,64.99,3.36
157,coquimbo,0,CL,1566877421,82,-29.95,-71.34,55.4,5.82
158,rio grande,21,BR,1566877905,98,-32.03,-52.1,54.0,2.73
159,gigmoto,100,PH,1566877905,88,13.78,124.39,79.09,26.66
160,hualmay,0,PE,1566877472,88,-11.1,-77.61,58.21,13.51
161,chegdomyn,100,RU,1566877905,52,51.13,133.04,77.47,0.69
162,candolim,75,IN,1566877906,83,15.52,73.76,78.8,8.05
163,ambilobe,44,MG,1566877437,71,-13.19,49.05,70.09,8.57
164,pevek,85,RU,1566877412,94,69.7,170.27,40.39,4.85
165,high level,20,CA,1566877906,71,58.52,-117.13,57.2,3.11
166,fayaoue,83,NC,1566877906,77,-20.65,166.53,72.43,15.52
167,encheng,99,CN,1566877907,82,22.74,107.09,78.37,3.69
168,santa rosa,20,AR,1566877907,76,-36.62,-64.29,55.51,19.1
169,deseronto,20,CA,1566877907,64,44.2,-77.05,70.0,13.87
170,moramanga,100,MG,1566877907,96,-18.95,48.23,50.47,0.25
171,bethel,90,US,1566877428,67,60.79,-161.76,57.2,8.05
172,mnogovershinnyy,20,RU,1566877455,59,53.94,139.92,64.51,8.68
173,angouleme,0,FR,1566877908,73,45.65,0.15,69.8,10.29
174,kibakwe,7,TZ,1566877908,98,-6.71,36.37,58.39,5.82
175,sitka,0,US,1566877413,78,37.17,-99.65,71.01,11.99
176,kruisfontein,35,ZA,1566877461,73,-34.0,24.73,48.67,11.68
177,alofi,90,NU,1566877455,73,-19.06,-169.92,75.2,17.22
178,dikson,100,RU,1566877425,97,73.51,80.55,40.39,10.2
179,camopi,17,GF,1566877478,94,3.17,-52.33,71.53,3.36
180,sainte-anne-des-monts,100,CA,1566877908,66,49.13,-66.49,61.45,12.75
181,ialibu,73,PG,1566877908,74,-6.28,143.99,75.13,5.44
182,wilmington,1,US,1566877680,82,39.75,-75.55,64.99,5.14
183,hobyo,98,SO,1566877909,71,5.35,48.53,75.67,19.51
184,turukhansk,54,RU,1566877498,81,65.8,87.96,51.01,3.22
185,egvekinot,0,RU,1566877796,57,66.32,-179.17,60.55,4.32
186,beringovskiy,100,RU,1566877502,64,63.05,179.32,54.97,10.31
187,northam,0,AU,1566877909,34,-31.65,116.67,68.0,8.05
188,kaeo,80,NZ,1566877495,88,-35.1,173.78,61.0,7.05
189,rantepao,92,ID,1566877909,62,-2.97,119.9,71.35,3.98
190,gisborne,5,NZ,1566877910,57,-38.66,178.02,55.99,1.99
191,lompoc,90,US,1566877431,82,34.64,-120.46,68.0,6.93
192,tuktoyaktuk,90,CA,1566877408,87,69.44,-133.03,46.4,9.17
193,bossier city,1,US,1566877910,79,32.52,-93.73,87.8,6.93
194,hasaki,75,JP,1566877430,65,35.73,140.83,84.0,9.17
195,saint anthony,1,US,1566877498,34,43.97,-111.68,66.2,5.82
196,maraa,20,BR,1566877910,84,-1.83,-65.37,74.59,2.15
197,diffa,4,NE,1566877911,60,13.32,12.61,80.35,8.3
198,lagoa,0,PT,1566877911,72,37.14,-8.45,69.01,3.36
199,bella union,97,CO,1566877911,86,8.5,-73.35,69.73,5.35
200,prieska,0,ZA,1566877912,54,-29.67,22.74,43.09,1.19
201,gat,100,SN,1566877420,88,14.69,-16.54,80.6,11.1
202,chapais,1,CA,1566877414,77,49.78,-74.86,59.0,5.82
203,bulgan,0,MN,1566877912,57,48.81,103.53,58.75,5.01
204,keflavik,75,IS,1566877912,93,64.0,-22.56,50.0,17.22
205,kaseda,75,JP,1566877912,94,31.42,130.32,77.0,3.36
206,vao,84,EE,1566877457,95,59.1,26.19,57.85,3.38
207,teahupoo,20,PF,1566877913,69,-17.83,-149.27,82.4,6.93
208,waverly,90,US,1566877913,88,37.04,-77.1,72.0,4.63
209,faya,0,SA,1566877491,51,18.39,42.45,68.0,2.48
210,vila velha,75,BR,1566877448,69,-3.71,-38.6,80.6,18.34
211,lavrentiya,100,RU,1566877489,61,65.58,-170.99,61.27,10.22
212,ngunguru,91,NZ,1566877913,60,-35.62,174.5,61.0,8.01
213,verkhnyaya inta,45,RU,1566877913,68,65.99,60.32,41.65,3.62
214,karasjok,100,NO,1566877914,87,69.47,25.52,51.8,26.4
215,sola,3,TZ,1566877472,70,-3.17,33.8,62.17,7.65
216,roebourne,38,AU,1566877914,17,-20.77,117.15,81.97,13.44
217,nauchnyy gorodok,0,RU,1566877914,60,53.42,83.52,69.8,8.95
218,kaitangata,100,NZ,1566877489,59,-46.28,169.85,53.01,1.99
219,epinal,0,FR,1566877914,72,48.18,6.45,64.4,2.24
220,chase,40,US,1566877914,83,38.35,-98.35,72.0,11.41
221,toguchin,0,RU,1566877915,71,55.24,84.4,67.39,11.36
222,tomatlan,100,MX,1566877915,80,19.93,-105.25,80.71,2.68
223,cartagena del chaira,52,CO,1566877915,97,1.33,-74.84,70.27,2.17
224,salinopolis,0,BR,1566877646,80,-0.61,-47.36,80.89,15.99
225,bud,0,NO,1566877915,87,62.91,6.91,60.01,11.41
226,ayagoz,0,KZ,1566877915,30,47.96,80.43,73.15,13.35
227,dalby,0,AU,1566877709,38,-27.18,151.26,73.4,6.93
228,zhigansk,91,RU,1566877916,40,66.77,123.37,71.35,4.0
229,nishihara,75,JP,1566877916,65,35.74,139.53,90.0,4.7
230,methoni,20,GR,1566877916,77,36.82,21.7,79.0,2.59
231,ostrovnoy,100,RU,1566877409,85,68.05,39.51,40.75,9.04
232,richards bay,100,ZA,1566877421,76,-28.77,32.06,69.73,16.02
233,kedrovyy,0,RU,1566877916,72,56.17,91.82,62.6,6.71
234,iqaluit,75,CA,1566877916,81,63.75,-68.52,48.2,17.22
235,pangkalanbuun,100,ID,1566877917,81,-2.68,111.62,82.15,4.09
236,seoul,20,KR,1566877368,65,37.57,126.98,80.6,5.82
237,coxim,100,BR,1566877917,24,-18.5,-54.75,81.25,5.01
238,havelock,90,US,1566877917,83,34.88,-76.9,75.2,11.41
239,kattivakkam,20,IN,1566877464,66,13.22,80.32,89.6,8.05
240,east london,40,ZA,1566877324,72,-33.02,27.91,59.0,6.93
241,tefe,55,BR,1566877918,83,-3.35,-64.71,74.77,1.83
242,hienghene,99,NC,1566877918,60,-20.68,164.93,72.25,1.88
243,marawi,100,PH,1566877918,77,8.0,124.29,82.99,3.0
244,concepcion del oro,0,MX,1566877918,47,24.63,-101.42,72.07,10.07
245,verkhoyansk,39,RU,1566877918,49,67.55,133.39,62.35,0.83
246,gravdal,6,NO,1566877919,77,59.79,5.78,64.4,10.29
247,bathsheba,75,BB,1566877407,88,13.22,-59.52,80.6,26.4
248,maracaibo,20,CO,1566877919,73,3.41,-75.78,75.2,6.93
249,warrnambool,0,AU,1566877919,76,-38.38,142.48,57.0,8.01
250,katsuura,75,JP,1566877415,100,33.93,134.5,77.0,14.99
251,butembo,85,CD,1566877920,98,0.12,29.29,59.65,1.72
252,mana,97,NG,1566877920,84,13.03,5.27,75.31,9.66
253,upernavik,78,GL,1566877407,67,72.79,-56.15,39.13,9.04
254,gwembe,24,ZM,1566877920,65,-16.5,27.61,62.89,4.14
255,husavik,83,CA,1566877424,86,50.56,-96.99,60.01,5.99
256,avera,90,US,1566877920,88,33.19,-82.53,78.8,5.82
257,beloha,0,MG,1566877483,61,-25.17,45.06,60.37,1.05
258,carutapera,0,BR,1566877920,85,-1.2,-46.02,77.29,6.17
259,georgetown,20,GY,1566877163,100,6.8,-58.16,73.4,2.24
260,anito,100,PH,1566877921,87,12.45,125.29,76.93,11.36
261,cockburn town,67,TC,1566877210,82,21.46,-71.14,82.33,14.76
262,tazovskiy,82,RU,1566877921,82,67.47,78.7,42.55,3.87
263,mantenopolis,1,BR,1566877922,91,-18.86,-41.12,62.71,5.19
264,sapa,90,PH,1566877922,74,14.32,120.76,82.4,11.41
265,akdepe,0,TM,1566877922,49,42.05,59.39,71.6,9.17
266,berekua,100,DM,1566877922,98,15.23,-61.32,82.0,1.99
267,monrovia,75,LR,1566877922,94,6.33,-10.8,75.2,7.83
268,amuntai,100,ID,1566877923,48,-2.42,115.25,90.79,1.86
269,hornepayne,100,CA,1566877923,81,49.22,-84.78,59.29,4.03
270,lesnoye,100,RU,1566877923,73,51.57,42.77,55.69,4.5
271,greeneville,90,US,1566877923,93,36.16,-82.83,69.01,2.21
272,nome,1,US,1566877499,88,30.04,-94.42,86.0,5.82
273,tarana,29,AU,1566877923,88,-33.53,149.91,53.01,4.0
274,buchloe,12,DE,1566877924,87,48.04,10.72,62.01,4.7
275,victoria,75,BN,1566877410,66,5.28,115.24,86.0,6.93
276,yerbogachen,29,RU,1566877463,56,61.28,108.01,62.17,11.23
277,maura,0,IN,1566877924,78,29.68,79.39,71.35,2.53
278,belmonte,0,PT,1566877453,71,40.36,-7.35,64.99,1.81
279,westport,1,US,1566877924,82,41.14,-73.36,64.99,2.19
280,riyadh,0,SA,1566877924,27,24.63,46.72,78.8,0.81
281,touros,20,BR,1566877438,88,-5.2,-35.46,73.4,4.7
282,maralal,41,KE,1566877925,76,1.1,36.7,59.11,8.61
283,gualeguay,0,AR,1566877925,97,-33.15,-59.31,58.39,5.77
284,basco,75,US,1566877436,100,40.33,-91.2,72.0,5.88
285,biltine,100,TD,1566877925,74,14.53,20.93,76.57,9.08
286,palaikastron,0,GR,1566877925,53,35.2,26.25,81.0,10.0
287,aljezur,0,PT,1566877926,73,37.31,-8.8,69.01,6.42
288,bonthe,100,SL,1566877437,91,7.53,-12.5,74.95,6.69
289,nara,75,JP,1566877833,69,34.68,135.8,82.4,5.82
290,college,1,US,1566877926,42,64.86,-147.8,62.6,8.05
291,macau,0,BR,1566877926,72,-5.11,-36.64,74.05,17.22
292,polunochnoye,62,RU,1566877926,83,60.87,60.43,40.39,1.92
293,zhezkazgan,75,KZ,1566877927,42,47.8,67.71,66.2,8.95
294,pucallpa,75,PE,1566877927,88,-8.38,-74.54,75.2,3.36
295,talnakh,75,RU,1566877455,93,69.49,88.39,48.2,8.95
296,kawalu,99,ID,1566877499,77,-7.38,108.21,72.43,4.54
297,sao filipe,1,CV,1566877455,81,14.9,-24.5,79.09,5.1
298,canberra,90,AU,1566877927,62,-35.3,149.1,55.99,4.7
299,coihaique,0,CL,1566877928,69,-45.58,-72.07,35.6,3.36
300,guerrero negro,32,MX,1566877422,92,27.97,-114.04,71.89,12.91
301,aranos,0,NA,1566877928,24,-24.14,19.11,50.47,8.7
302,havre-saint-pierre,40,CA,1566877505,93,50.23,-63.6,53.6,3.36
303,peniche,90,PT,1566877928,88,39.36,-9.38,66.2,2.24
304,nanortalik,46,GL,1566877484,75,60.14,-45.24,42.55,2.95
305,narsaq,75,GL,1566877422,52,60.91,-46.05,44.6,6.93
306,saryg-sep,96,RU,1566877928,43,51.49,95.55,65.95,3.24
307,ha giang,100,VN,1566877929,92,22.83,104.99,67.39,1.3
308,colares,40,PT,1566877929,88,38.8,-9.45,68.0,6.93
309,bath,47,GB,1566877690,93,51.38,-2.36,62.01,4.7
310,klimovo,68,RU,1566877929,77,52.38,32.2,55.51,3.89
311,anloga,40,GH,1566877453,88,5.79,0.9,77.0,8.05
312,kuytun,0,RU,1566877929,60,54.34,101.51,61.27,5.21
313,urla,0,TR,1566877930,65,38.32,26.77,82.4,4.7
314,tessalit,20,ML,1566877930,52,20.2,1.01,86.29,13.09
315,port moresby,40,PG,1566877930,78,-9.47,147.16,80.6,17.22
316,meulaboh,100,ID,1566877413,77,4.14,96.13,80.17,5.28
317,sao sebastiao,33,BR,1566877930,56,-3.15,-58.36,76.93,1.72
318,gonen,0,IL,1566877930,72,33.12,35.65,71.01,4.7
319,ponta do sol,90,BR,1566877446,64,-20.63,-46.0,61.45,7.18
320,bandarbeyla,0,SO,1566877931,67,9.49,50.81,76.03,27.02
321,seddon,75,AU,1566877931,54,-37.81,144.89,61.0,10.29
322,chamrajnagar,100,IN,1566877931,84,11.92,76.95,71.17,11.45
323,parabel,87,RU,1566877931,72,58.71,81.5,63.25,16.8
324,poya,82,NC,1566877931,74,-21.35,165.16,70.81,13.8
325,masvingo,0,ZW,1566877465,57,-20.08,30.83,59.65,3.4
326,mount gambier,75,AU,1566877932,66,-37.83,140.78,55.4,11.41
327,kasongo-lunda,100,CD,1566877932,78,-6.48,16.82,69.73,1.92
328,ibipeba,0,BR,1566877932,86,-11.64,-42.01,58.75,8.37
329,aloleng,100,PH,1566877932,84,16.13,119.78,82.33,12.06
330,maltahohe,0,NA,1566877932,53,-24.83,16.98,40.39,1.68
331,belaya gora,69,RU,1566877932,67,68.54,146.19,53.17,12.39
332,longyearbyen,20,NO,1566877449,69,78.22,15.63,37.4,19.46
333,te anau,100,NZ,1566877394,76,-45.41,167.72,45.61,10.16
334,praia da vitoria,75,PT,1566877933,88,38.73,-27.07,69.8,11.3
335,zheleznodorozhnyy,40,RU,1566877933,82,55.75,38.0,61.0,4.47
336,oussouye,40,SN,1566877933,88,12.49,-16.54,80.6,6.93
337,nemuro,40,JP,1566877933,60,43.32,145.57,73.4,8.05
338,ca mau,3,VN,1566877454,64,9.18,105.15,87.55,12.77
339,gumdag,64,TM,1566877934,25,39.2,54.59,77.11,3.42
340,saint-leu,0,RE,1566877934,56,-21.15,55.28,71.6,12.75
341,barahona,0,DO,1566877934,87,18.21,-71.1,73.69,3.44
342,kamyshin,6,RU,1566877935,54,50.08,45.4,58.03,1.36
343,mujiayingzi,0,CN,1566877935,36,42.12,118.78,71.53,11.3
344,ulety,100,RU,1566877935,97,51.36,112.48,51.01,9.64
345,harper,1,US,1566877935,54,30.3,-99.24,88.0,4.7
346,vardo,90,US,1566877467,68,39.62,-77.74,68.0,4.7
347,zhigalovo,26,RU,1566877936,66,54.81,105.15,61.81,3.2
348,weinan,90,CN,1566877702,88,34.5,109.46,73.4,6.71
349,vila franca do campo,75,PT,1566877480,83,37.72,-25.43,71.01,3.36
350,karatau,0,KZ,1566877936,17,43.18,70.46,77.11,7.92
351,sanjwal,1,PK,1566877936,94,33.76,72.43,82.0,4.7
352,alice springs,0,AU,1566877306,22,-23.7,133.88,66.2,9.17
353,petropavlovka,14,RU,1566877936,61,50.61,105.32,52.81,12.46
354,san cristobal,0,HN,1566877937,84,14.68,-86.92,68.47,6.17
355,lorengau,68,PG,1566877426,80,-2.02,147.27,82.15,7.94
356,emmett,0,US,1566877877,28,43.87,-116.5,75.2,5.84
357,berezovyy,100,RU,1566877937,65,51.67,135.7,67.75,3.49
358,terrace,90,CA,1566877888,100,54.52,-128.61,53.6,14.99
359,dole,0,FR,1566877937,93,47.09,5.49,59.0,4.7
360,uvat,100,RU,1566877813,94,59.14,68.9,47.59,12.77
361,coari,12,BR,1566877938,75,-4.09,-63.14,77.65,1.99
362,pangnirtung,100,CA,1566877442,90,66.15,-65.72,40.57,2.39
363,los llanos de aridane,90,ES,1566877414,78,28.66,-17.92,73.4,13.87
364,mattru,100,SL,1566877938,97,7.62,-11.83,72.79,1.74
365,mawlamyine,100,MM,1566877938,89,16.49,97.63,78.55,9.66
366,beberibe,75,BR,1566877719,69,-4.18,-38.13,80.6,18.34
367,poli,94,CM,1566877938,94,8.48,13.24,68.65,2.98
368,san-pedro,99,CI,1566877938,95,4.75,-6.64,70.81,2.93
369,clyde river,90,CA,1566877463,93,70.47,-68.59,39.2,8.05
370,leshukonskoye,100,RU,1566877939,96,64.9,45.76,47.23,10.36
371,tecolutilla,5,MX,1566877939,74,18.28,-93.32,82.4,6.62
372,furano,40,JP,1566877939,53,43.28,142.47,73.4,4.7
373,kalmunai,99,LK,1566877423,62,7.42,81.82,80.35,2.13
374,oktyabrskiy,40,RU,1566877940,82,55.61,37.97,61.0,4.47
375,benjamin constant,40,BR,1566877940,100,-4.38,-70.03,75.2,1.81
376,muisne,45,EC,1566877940,88,0.61,-80.02,73.51,10.47
377,emerald,0,AU,1566877940,24,-23.53,148.16,82.4,12.75
378,mwense,1,ZM,1566877460,57,-10.39,28.7,62.71,4.45
379,york,1,US,1566877940,82,39.96,-76.73,66.99,5.82
380,mosquera,20,CO,1566877263,71,4.71,-74.23,53.6,2.24
381,fortuna,1,US,1566877501,87,40.6,-124.16,63.0,4.7
382,pindwara,22,IN,1566877941,81,24.79,73.05,79.99,9.17
383,ewa beach,1,US,1566877458,55,21.32,-158.01,89.6,8.05
384,novyy urengoy,100,RU,1566877465,79,66.08,76.63,45.07,9.71
385,namie,75,JP,1566877941,73,37.52,140.86,82.0,5.82
386,petropavlovsk-kamchatskiy,75,RU,1566877451,87,53.05,158.65,57.2,4.47
387,moussoro,100,TD,1566877941,71,13.64,16.49,79.27,6.02
388,akureyri,20,IS,1566877942,62,65.68,-18.09,51.8,18.34
389,henties bay,0,NA,1566877942,91,-22.12,14.28,54.0,3.0
390,ancud,0,CL,1566877451,100,-41.87,-73.83,37.4,3.36
391,porto novo,0,BR,1566877429,87,-23.68,-45.44,59.0,8.05
392,yulin,100,CN,1566877942,23,38.3,109.75,76.03,6.44
393,makakilo city,1,US,1566877234,55,21.35,-158.09,89.6,8.05
394,manuk mangkaw,98,PH,1566877943,74,4.8,119.85,83.77,13.89
395,antofagasta,90,CL,1566877943,82,-23.65,-70.4,57.2,6.93
396,elesbao veloso,12,BR,1566877943,51,-6.2,-42.14,75.49,6.71
397,boende,87,CD,1566877943,88,-0.28,20.88,69.01,0.92
398,laguna,20,BZ,1566877434,83,16.17,-88.94,82.4,3.38
399,beaverlodge,20,CA,1566877944,62,55.21,-119.43,55.4,8.05
400,urucara,33,BR,1566877944,55,-2.54,-57.76,80.35,1.63
401,staromyshastovskaya,0,RU,1566877944,72,45.34,39.07,73.0,6.71
402,owensboro,90,US,1566877944,100,37.77,-87.11,75.2,5.82
403,nioro,54,GM,1566877944,92,13.79,-15.05,75.49,6.71
404,sabinopolis,12,BR,1566877945,97,-18.67,-43.08,54.61,3.74
405,kearney,1,US,1566877945,88,40.7,-99.08,66.2,3.36
406,tondela,75,PT,1566877945,100,40.52,-8.08,68.0,6.93
407,broken hill,75,AU,1566877945,39,-31.97,141.45,57.2,13.87
408,plettenberg bay,9,ZA,1566877446,74,-34.05,23.37,48.13,6.55
409,dzaoudzi,0,YT,1566877946,88,-12.79,45.27,73.4,9.17
410,mezen,63,RU,1566877500,92,65.85,44.24,45.25,14.32
411,igarka,6,RU,1566877946,74,67.47,86.57,50.29,6.87
412,nouadhibou,90,MR,1566877443,94,20.93,-17.03,73.4,4.7
413,seydi,34,NE,1566877408,73,13.34,7.75,76.93,7.83
414,burnie,41,AU,1566877436,56,-41.05,145.91,57.0,5.99
415,challapata,0,BO,1566877947,39,-18.9,-66.78,47.23,4.76
416,awjilah,0,LY,1566877947,60,29.14,21.3,75.13,8.43
417,jurm,0,AF,1566877947,28,36.86,70.83,65.59,2.21
418,bartica,20,GY,1566877948,100,6.41,-58.62,73.4,2.24
419,uglezavodsk,0,RU,1566877948,73,47.32,142.63,69.8,13.42
420,teya,5,MX,1566877948,83,21.05,-89.07,82.99,8.05
421,eureka,1,US,1566877819,87,40.8,-124.16,62.01,10.76
422,qaqortoq,75,GL,1566877949,52,60.72,-46.03,44.6,6.93
423,penco,100,CL,1566877949,100,-36.74,-72.99,50.0,4.7
424,maumere,23,ID,1566877949,56,-8.63,122.22,78.73,6.08
425,wilmington island,40,US,1566877699,74,32.0,-80.97,81.0,3.36
426,khani,40,GE,1566877950,100,41.96,42.96,69.8,4.7
427,magnitka,58,RU,1566877950,90,55.34,59.7,40.39,4.14
428,misratah,0,LY,1566877485,70,32.38,15.09,80.17,5.48
429,ereymentau,83,KZ,1566877950,65,51.62,73.1,60.37,14.16
430,anadyr,0,RU,1566877497,55,64.73,177.51,62.6,4.47
431,puerto escondido,20,MX,1566877950,83,15.86,-97.07,80.6,3.06
432,makarov,0,RU,1566877950,55,48.62,142.78,69.37,7.16
433,solnechnyy,85,RU,1566877951,69,50.72,136.64,69.73,5.21
434,margate,40,AU,1566877951,41,-43.03,147.26,59.0,21.92
435,corner brook,40,CA,1566877951,87,48.95,-57.95,57.2,2.24
436,zhaotong,100,CN,1566877869,76,27.34,103.71,68.83,4.5
437,chiredzi,0,ZW,1566877951,62,-21.05,31.67,65.23,0.47
438,umred,90,IN,1566877952,88,20.85,79.32,75.2,5.82
439,mehamn,75,NO,1566877952,93,71.03,27.85,48.2,1.12
440,lubao,0,CD,1566877952,81,-5.39,25.75,69.91,3.31
441,khandbari,0,NP,1566877952,65,27.38,87.21,67.39,3.6
442,sinjar,0,SY,1566877461,70,35.59,37.0,69.55,6.53
443,takoradi,100,GH,1566877485,95,4.89,-1.75,72.07,3.22
444,longhua,99,CN,1566877952,60,29.21,106.21,85.39,2.13
445,tilichiki,100,RU,1566877953,92,60.47,166.1,49.75,7.11
446,ikalamavony,76,MG,1566877953,76,-21.17,46.6,53.89,4.65
447,aktau,0,KZ,1566877953,52,43.65,51.16,66.2,11.18
448,tongchuan,90,CN,1566877953,88,34.9,108.95,73.4,6.71
449,adrar,16,DZ,1566877431,17,27.87,-0.29,91.4,10.29
450,moindou,90,NC,1566877488,60,-21.69,165.68,75.2,6.93
451,humaita,0,AR,1566877954,71,-24.93,-65.37,68.0,0.56
452,dongsheng,100,CN,1566877954,62,29.72,112.52,88.63,3.51
453,pishin,0,PK,1566877954,12,30.58,67.0,77.83,1.52
454,chilca,0,PE,1566877954,61,-13.22,-72.34,46.4,3.36
455,dolores,2,UY,1566877505,93,-33.53,-58.22,59.0,1.01
456,manati,0,AL,1566877955,88,41.76,19.67,64.4,2.24
457,grand gaube,75,MU,1566877419,60,-20.01,57.66,71.6,17.22
458,chum phae,100,TH,1566877753,79,16.54,102.1,81.25,1.12
459,kislovodsk,0,RU,1566877955,77,43.91,42.72,62.6,6.71
460,ayotzintepec,35,MX,1566877955,95,17.67,-96.13,57.31,3.13
461,sovetskiy,100,RU,1566877955,96,56.76,48.47,54.07,15.39
462,flinders,90,AU,1566877956,82,-34.58,150.85,57.0,10.29
463,port hardy,20,CA,1566877425,72,50.7,-127.42,60.8,8.05
464,evansville,90,US,1566877920,100,37.97,-87.56,75.99,5.82
465,dukat,43,AL,1566877956,43,40.25,19.57,80.01,1.01
466,dingle,100,PH,1566877470,93,11.0,122.67,75.85,4.81
467,sorland,75,NO,1566877449,93,67.67,12.69,57.2,10.29
468,amahai,27,ID,1566877956,79,-3.31,129.0,77.29,14.16
469,guarapari,75,BR,1566877956,88,-20.67,-40.5,66.2,4.7
470,hearst,100,CA,1566877845,67,49.69,-83.67,65.95,7.27
471,penzance,9,GB,1566877957,93,50.12,-5.53,57.2,4.7
472,tura,6,RU,1566877447,62,64.27,100.22,55.87,13.8
473,aripuana,100,BR,1566877957,82,-9.17,-60.63,74.95,1.72
474,north bend,1,US,1566877446,82,43.41,-124.22,66.99,20.8
475,palmer,20,AU,1566877772,71,-34.85,139.16,59.0,8.05
476,lasa,0,CY,1566877958,68,34.92,32.53,75.2,8.05
477,nahrin,0,AF,1566877958,20,36.06,69.13,75.13,0.45
478,maldonado,40,UY,1566877958,100,-34.91,-54.96,53.6,3.36
479,vanimo,98,PG,1566877407,73,-2.67,141.3,80.71,7.38
480,nouakchott,64,MR,1566877958,83,18.08,-15.98,78.8,9.17
481,saint-francois,0,FR,1566877445,82,46.42,3.91,60.8,3.74
482,erzin,0,TR,1566877958,83,36.95,36.2,79.0,8.05
483,huasahuasi,28,PE,1566877959,82,-11.27,-75.65,36.25,3.69
484,juneau,90,US,1566877298,100,58.3,-134.42,53.6,4.7
485,morgan city,100,US,1566877959,94,29.7,-91.21,82.99,4.88
486,empangeni,100,ZA,1566877959,82,-28.75,31.9,63.43,5.06
487,deputatskiy,100,RU,1566877959,78,69.3,139.9,45.97,5.01
488,casablanca,40,MA,1566877959,100,33.6,-7.62,71.01,4.7
489,cam ranh,20,VN,1566877960,56,11.92,109.15,93.2,10.29
490,rio muerto,64,MX,1566877960,64,27.42,-110.23,87.91,10.45
491,kapit,97,MY,1566877960,62,2.02,112.94,85.39,2.95
492,san patricio,100,PY,1566877494,94,-26.98,-56.83,61.27,4.18
493,nago,0,IT,1566877960,82,45.88,10.89,73.4,3.36
494,shenjiamen,49,CN,1566877960,77,29.96,122.3,86.11,11.81
495,mufumbwe,81,ZM,1566877961,43,-13.68,24.8,69.73,5.01
496,celestun,0,MX,1566877961,85,20.87,-90.4,82.87,15.23
497,eidfjord,0,NO,1566877961,88,60.47,7.07,45.0,5.23
498,churapcha,0,RU,1566877961,36,62.0,132.43,68.83,7.16
499,dubbo,89,AU,1566877484,34,-32.25,148.6,64.4,10.29
500,sucre,0,BO,1566877927,66,-19.05,-65.26,48.2,4.7
501,fuzhou,20,CN,1566877962,55,26.08,119.3,91.4,6.71
502,lichuan,100,CN,1566877962,74,30.3,108.94,82.87,2.55
503,huarmey,0,PE,1566877962,91,-10.07,-78.15,58.57,13.02
504,vostok,81,RU,1566877962,45,46.45,135.83,77.11,3.89
505,ishigaki,20,JP,1566877962,79,24.34,124.16,87.8,11.41
506,ko samui,20,TH,1566877963,78,9.54,99.94,82.4,6.93
507,lufilufi,40,WS,1566877963,62,-13.87,-171.6,87.8,13.87
508,jijiga,48,ET,1566877963,89,9.35,42.8,57.67,11.65
509,merauke,18,ID,1566877963,82,-8.49,140.4,76.39,19.53
510,lima,90,PE,1566877868,87,-12.06,-77.04,59.0,8.05
511,shellbrook,90,CA,1566877963,87,53.22,-106.39,57.2,10.29
512,puerto del rosario,20,ES,1566877456,83,28.5,-13.86,71.6,19.46
513,champua,70,IN,1566877964,81,22.04,85.66,78.01,2.13
514,nyurba,9,RU,1566877964,50,63.29,118.35,70.81,6.49
515,norman wells,75,CA,1566877438,42,65.28,-126.83,62.6,3.36
516,caxito,0,BR,1566877964,92,-22.65,-42.51,54.43,3.56
517,sribne,0,UA,1566877964,78,50.66,32.92,55.15,2.77
518,acapulco,75,MX,1566877363,83,16.86,-99.88,84.2,2.24
519,ballina,100,IE,1566877965,95,54.11,-9.15,57.99,13.27
520,vrangel,100,RU,1566877965,93,42.73,133.08,68.11,4.94
521,luba,91,PH,1566877965,76,17.32,120.7,83.23,5.19
522,ucluelet,0,CA,1566877965,85,48.94,-125.55,61.0,16.2
523,udachnyy,90,RU,1566877965,76,66.42,112.4,55.4,4.47
524,daru,100,PG,1566877966,73,-9.07,143.21,78.55,10.36
525,manyana,90,AU,1566877966,82,-35.26,150.51,61.0,10.29
526,leningradskiy,100,RU,1566877473,97,69.38,178.42,43.09,8.34
527,chumikan,0,RU,1566877966,53,54.72,135.31,65.41,4.56
528,bobbili,96,IN,1566877966,79,18.58,83.35,74.77,7.27
529,angoche,0,MZ,1566877967,96,-16.23,39.91,63.79,1.25
530,manthani,94,IN,1566877872,82,18.65,79.67,79.09,8.14
531,portland,1,US,1566877617,82,43.66,-70.25,55.99,1.63
532,den helder,0,NL,1566877939,94,52.96,4.76,70.0,6.93
533,norfolk,90,US,1566877927,88,36.85,-76.29,73.4,4.7
534,salekhard,76,RU,1566877968,67,66.54,66.62,43.09,7.43
535,kumla,27,SE,1566877968,93,59.13,15.14,52.0,2.24
536,aksu,90,KZ,1566877968,64,52.04,76.93,68.0,8.95
537,abu dhabi,20,AE,1566877968,94,24.47,54.37,87.8,8.05
538,tamandare,5,BR,1566877968,97,-8.28,-70.75,70.63,2.19
539,ponta delgada,75,PT,1566877969,83,37.73,-25.67,71.01,3.36
540,paita,0,PE,1566877969,91,-5.09,-81.11,60.73,14.81
541,lethem,100,GY,1566877969,74,3.38,-59.8,79.09,3.76
542,iskateley,99,RU,1566877969,94,67.68,53.15,40.03,10.25
543,batemans bay,68,AU,1566877465,62,-35.71,150.18,62.01,1.01
544,san quintin,91,PH,1566877969,76,17.54,120.52,83.23,5.19
545,lujan,0,AR,1566877970,42,-46.57,-67.67,40.39,19.39
546,puerto colombia,40,CO,1566877970,83,10.99,-74.96,84.2,11.41
547,spring valley,90,US,1566877970,94,41.33,-89.2,69.8,4.7
548,shimoda,75,JP,1566877501,78,34.7,138.93,82.4,5.82
549,mayor pablo lagerenza,69,PY,1566877970,46,-19.93,-60.77,78.73,4.07
550,derzhavinsk,94,KZ,1566877970,66,51.1,66.31,53.71,13.91
551,okha,100,RU,1566877502,91,53.59,142.95,56.77,11.12
552,merta,0,IN,1566877764,73,26.65,74.03,81.97,8.88
553,searcy,40,US,1566877971,94,35.25,-91.74,80.6,4.7
554,genhe,100,CN,1566877971,99,50.78,121.52,50.11,5.73
555,omboue,84,GA,1566877971,91,-1.57,9.26,72.79,9.22
556,chippewa falls,75,US,1566877507,100,44.94,-91.39,61.0,5.82
557,imbituba,75,BR,1566877972,93,-28.24,-48.67,64.4,6.93
558,tifton,90,US,1566877972,100,31.45,-83.51,75.99,7.09
559,samarai,100,PG,1566877427,91,-10.62,150.67,75.13,4.97
560,qobustan,0,AZ,1566877972,88,40.08,49.41,75.2,14.99
561,tulle,0,FR,1566877972,72,45.27,1.77,64.99,3.36
562,nicoya,0,CR,1566877972,78,10.15,-85.45,80.6,5.82
563,ulaangom,100,MN,1566877972,36,49.98,92.07,65.95,7.05
564,marfino,0,RU,1566877973,100,56.07,37.56,64.0,6.71
565,kangaba,26,ML,1566877973,97,11.94,-8.41,69.73,4.16
