City_ID,City,Cloudiness,Country,Date,Humidity,Lat,Lng,Max Temp,Wind Speed
0,rovaniemi,75,FI,1567691023,76,66.5,25.72,53.6,8.05
1,busselton,0,AU,1567691024,59,-33.64,115.35,44.01,10.69
2,villanueva,0,HN,1567691024,83,15.32,-87.99,84.99,5.82
3,chengzihe,98,CN,1567691024,95,45.35,131.0,62.15,4.16
4,goundam,15,ML,1567691025,25,16.42,-3.66,101.93,11.63
5,jamestown,66,AU,1567690768,82,-33.21,138.6,45.23,13.15
6,kant,75,KG,1567691025,35,42.89,74.85,73.4,15.66
7,bagdarin,86,RU,1567691025,93,54.44,113.59,49.55,2.66
8,tame,73,CO,1567691025,73,6.46,-71.72,64.31,6.38
9,charlestown,1,US,1567691026,63,41.38,-71.64,66.2,8.05
10,port alfred,100,ZA,1567691026,70,-33.59,26.89,60.01,4.0
11,nanortalik,100,GL,1567691026,76,60.14,-45.24,42.71,5.01
12,batticaloa,77,LK,1567691027,69,7.71,81.69,80.15,4.41
13,albany,20,US,1567690987,72,42.65,-73.75,64.0,5.82
14,lasa,40,CY,1567691027,66,34.92,32.53,86.0,11.41
15,mataura,100,NZ,1567691027,93,-46.19,168.86,46.0,3.0
16,vaini,75,IN,1567691028,94,15.34,74.49,73.4,11.41
17,rikitea,62,PF,1567691028,86,-23.12,-134.97,70.97,21.59
18,atuona,0,PF,1567691028,76,-9.8,-139.03,78.35,13.91
19,lavrentiya,83,RU,1567691028,97,65.58,-170.99,42.71,6.96
20,riyadh,66,SA,1567691029,9,24.63,46.72,109.4,8.05
21,axim,97,GH,1567691029,84,4.87,-2.24,78.17,14.5
22,talara,40,PE,1567691029,290,-4.58,-81.27,62.6,16.11
23,hermanus,0,ZA,1567691029,79,-34.42,19.24,73.0,17.0
24,saldanha,0,PT,1567691029,23,41.42,-6.55,78.89,13.18
25,kavieng,100,PG,1567691030,78,-2.57,150.8,80.33,8.01
26,tuktoyaktuk,20,CA,1567691030,93,69.44,-133.03,39.2,4.7
27,pisco,90,PE,1567691030,30,-13.71,-76.2,71.6,3.36
28,faanui,70,PF,1567691031,83,-16.48,-151.75,76.73,23.09
29,dali,1,CN,1567691031,46,34.79,109.94,74.57,8.32
30,petropavlovsk-kamchatskiy,15,RU,1567691031,93,53.05,158.65,48.2,4.47
31,grand-santi,18,GF,1567691031,44,4.27,-54.38,91.13,5.97
32,nikolskoye,40,RU,1567691032,46,59.7,30.79,72.0,15.66
33,praia da vitoria,75,PT,1567691032,83,38.73,-27.07,71.6,20.76
34,yellowknife,90,CA,1567690881,100,62.45,-114.38,46.4,4.7
35,punta arenas,20,CL,1567691032,56,-53.16,-70.91,39.2,6.93
36,san patricio,100,PY,1567691033,51,-26.98,-56.83,61.25,7.2
37,saint-philippe,1,CA,1567691033,67,45.36,-73.48,62.01,4.7
38,cacoal,35,BR,1567691033,21,-11.43,-61.44,99.05,8.5
39,esperance,40,AU,1567691034,80,-33.86,121.89,41.0,1.12
40,saint george,20,GR,1567691034,35,39.45,22.34,86.0,16.11
41,beirut,40,LB,1567691034,55,33.9,35.48,86.0,8.05
42,pinyug,63,RU,1567691034,85,60.25,47.79,57.11,3.98
43,hobart,20,AU,1567690828,86,-42.88,147.33,41.0,2.68
44,bredasdorp,75,ZA,1567691035,55,-34.53,20.04,61.0,23.04
45,qaqortoq,75,GL,1567691037,61,60.72,-46.03,46.4,4.7
46,paamiut,100,GL,1567691037,68,61.99,-49.67,43.43,4.94
47,manicore,0,BR,1567691037,30,-5.81,-61.3,104.27,1.63
48,castro,0,CL,1567691037,86,-42.48,-73.76,37.4,3.36
49,henties bay,26,NA,1567691038,78,-22.12,14.28,60.01,8.01
50,laguna,20,BZ,1567691038,83,16.17,-88.94,80.6,4.7
51,vardo,1,US,1567691038,72,39.62,-77.74,70.0,8.05
52,bluff,0,AU,1567691038,26,-23.58,149.07,61.25,4.9
53,ponta do sol,0,BR,1567691039,35,-20.63,-46.0,85.01,9.48
54,ferme-neuve,30,CA,1567691039,52,46.7,-75.45,58.37,6.58
55,butaritari,16,KI,1567691039,73,3.07,172.79,84.47,9.08
56,saint anthony,1,US,1567691039,58,43.97,-111.68,59.0,3.36
57,khatanga,100,RU,1567691040,94,71.98,102.47,51.17,16.33
58,vanimo,98,PG,1567691040,74,-2.67,141.3,78.53,12.33
59,puerto ayora,75,EC,1567691040,88,-0.74,-90.35,68.0,11.41
60,avarua,100,CK,1567691029,69,-21.21,-159.78,73.4,13.87
61,tiksi,99,RU,1567691040,86,71.64,128.87,40.91,5.75
62,beringovskiy,100,RU,1567691040,94,63.05,179.32,43.25,0.67
63,sisimiut,100,GL,1567691041,86,66.94,-53.67,41.45,5.93
64,te anau,12,NZ,1567691041,83,-45.41,167.72,39.11,1.45
65,ludvika,0,SE,1567691041,51,60.15,15.18,62.6,13.87
66,qaanaaq,24,GL,1567691042,52,77.48,-69.36,31.73,7.47
67,cape town,0,ZA,1567690842,38,-33.93,18.42,75.0,11.41
68,iwanai,80,JP,1567691042,89,42.97,140.51,59.27,5.86
69,kathu,57,ZA,1567691042,16,-27.7,23.05,80.01,10.54
70,souillac,0,FR,1567691042,40,45.6,-0.6,73.0,8.05
71,new norfolk,20,AU,1567691042,86,-42.78,147.06,41.0,2.68
72,mar del plata,69,AR,1567691043,52,-46.43,-67.52,39.29,13.15
73,jalu,0,LY,1567691043,23,29.03,21.55,94.91,12.64
74,cap malheureux,40,MU,1567691043,69,-19.98,57.61,75.2,11.41
75,barrow,100,AR,1567691044,51,-38.31,-60.23,45.59,9.01
76,svetlogorsk,90,RU,1567691044,54,53.14,59.15,57.2,13.42
77,malanje,79,AO,1567691044,27,-9.54,16.35,88.43,6.31
78,upernavik,96,GL,1567691044,86,72.79,-56.15,41.63,10.49
79,victoria,75,BN,1567690756,88,5.28,115.24,84.2,5.5
80,rengo,90,CL,1567691045,76,-34.41,-70.86,53.6,4.7
81,provideniya,50,RU,1567691045,95,64.42,-173.23,41.27,1.03
82,airai,51,TL,1567691046,87,-8.93,125.41,66.47,5.61
83,upata,8,VE,1567691046,70,8.02,-62.41,87.01,1.99
84,vila velha,40,BR,1567691046,58,-3.71,-38.6,84.2,20.8
85,port elizabeth,40,US,1567691046,68,39.31,-74.98,73.99,8.05
86,dubti,73,ET,1567691046,18,11.74,41.09,104.81,12.39
87,wasilla,90,US,1567690912,87,61.58,-149.44,53.6,0.72
88,talnakh,75,RU,1567691047,93,69.49,88.39,51.8,13.42
89,kandrian,96,PG,1567691047,87,-6.21,149.55,70.79,8.75
90,diamantino,0,BR,1567691047,15,-14.4,-56.44,107.87,1.79
91,santa rosa,100,AR,1567691047,39,-36.62,-64.29,49.19,18.41
92,akdepe,0,TM,1567691048,29,42.05,59.39,77.0,13.87
93,polyanka,18,UA,1567691050,52,50.26,27.69,68.63,2.59
94,ushuaia,0,AR,1567691050,74,-54.81,-68.31,39.2,6.93
95,kichera,100,RU,1567691050,94,55.93,110.1,47.93,3.6
96,kapaa,40,US,1567691051,74,22.08,-159.32,82.4,16.11
97,freeport,79,BS,1567691051,78,26.54,-78.7,83.93,15.79
98,narsaq,75,GL,1567690789,61,60.91,-46.05,46.4,4.7
99,chara,20,GR,1567691051,35,39.42,22.43,86.0,16.11
100,marfino,75,RU,1567691051,100,56.07,37.56,66.99,4.47
101,aswan,0,EG,1567691052,9,24.09,32.9,101.93,8.84
102,makaha,1,US,1567691052,74,21.47,-158.22,82.4,5.82
103,ribeira grande,20,PT,1567691052,65,38.52,-28.7,77.0,10.29
104,cayenne,75,GF,1567691052,66,4.94,-52.33,86.0,10.29
105,moron,11,HT,1567691052,72,18.56,-74.26,84.47,5.06
106,fortuna,75,ES,1567691053,54,38.18,-1.13,84.2,4.7
107,naze,100,NG,1567691053,86,5.43,7.07,78.53,7.25
108,sept-iles,20,CA,1567691053,62,50.2,-66.38,57.0,13.87
109,morant bay,20,JM,1567690782,52,17.88,-76.41,87.8,5.82
110,kamenka,4,MD,1567691054,42,48.03,28.7,72.0,6.11
111,umm lajj,0,SA,1567691054,73,25.02,37.27,85.01,11.25
112,severo-kurilsk,100,RU,1567691054,95,50.68,156.12,50.45,11.63
113,itapaci,100,BR,1567690852,7,-14.95,-49.55,99.41,11.54
114,verkhnyaya inta,48,RU,1567691054,70,65.99,60.32,58.37,11.07
115,kenai,1,US,1567690963,86,60.55,-151.26,39.2,7.34
116,isangel,63,VU,1567691055,73,-19.55,169.27,69.17,17.2
117,cap-aux-meules,75,CA,1567691055,77,47.38,-61.86,59.0,19.46
118,oranjestad,40,AW,1567691055,70,12.52,-70.03,86.0,25.28
119,ancud,0,CL,1567691056,86,-41.87,-73.83,37.4,3.36
120,whitehorse,20,CA,1567690878,93,60.72,-135.06,37.4,3.36
121,chiredzi,0,ZW,1567691056,11,-21.05,31.67,85.73,10.6
122,kaitangata,100,NZ,1567691056,72,-46.28,169.85,46.99,5.01
123,hilo,40,US,1567690871,83,19.71,-155.08,75.2,4.7
124,butembo,99,CD,1567691057,95,0.12,29.29,69.71,1.48
125,geraldton,90,CA,1567691057,100,49.72,-86.95,50.0,6.93
126,ilebo,71,CD,1567691057,40,-4.33,20.59,89.87,3.69
127,shiyan,0,CN,1567691057,51,32.65,110.78,73.0,1.99
128,peski,40,RU,1567691057,46,59.94,30.38,72.0,15.66
129,tolaga bay,58,NZ,1567690895,99,-38.37,178.3,46.49,2.46
130,slantsy,83,RU,1567691058,64,59.12,28.09,67.01,13.0
131,westport,1,US,1567690839,68,41.14,-73.36,68.0,9.17
132,vilyuysk,43,RU,1567691058,90,63.75,121.63,41.99,5.41
133,fengcheng,80,CN,1567691059,98,40.45,124.07,65.03,3.56
134,nioro,19,GM,1567691059,60,13.79,-15.05,89.87,6.85
135,lebu,75,ET,1567691061,67,8.96,38.73,62.6,16.11
136,itarema,82,BR,1567691061,44,-2.92,-39.92,90.95,11.61
137,katobu,0,ID,1567691061,89,-4.94,122.53,71.51,4.12
138,vieste,20,IT,1567691062,38,41.88,16.18,87.8,2.24
139,devils lake,75,US,1567691062,93,48.11,-98.87,57.2,16.11
140,taoudenni,65,ML,1567691062,11,22.68,-3.98,110.93,9.57
141,derzhavinsk,100,KZ,1567691063,81,51.1,66.31,50.45,20.15
142,donghai,0,CN,1567691063,90,34.52,118.76,66.29,3.87
143,akhtubinsk,0,RU,1567691063,29,48.29,46.17,69.89,6.44
144,chokurdakh,64,RU,1567691063,94,70.62,147.9,32.99,7.96
145,clyde river,90,CA,1567691064,86,70.47,-68.59,41.0,4.7
146,ust-uda,63,RU,1567691064,84,54.17,103.03,45.77,4.34
147,makakilo city,1,US,1567691064,74,21.35,-158.09,82.4,5.82
148,dakar,40,SN,1567690858,83,14.69,-17.45,84.2,6.93
149,brae,20,GB,1567691064,66,60.4,-1.35,51.8,11.41
150,buala,10,SB,1567691065,84,-8.15,159.59,77.45,15.43
151,tomatlan,95,MX,1567691065,74,19.93,-105.25,80.69,4.7
152,aklavik,90,CA,1567691065,100,68.22,-135.01,46.4,6.93
153,itai,100,BR,1567691065,68,-23.42,-49.09,67.55,16.46
154,saint-francois,75,FR,1567691065,46,46.42,3.91,69.8,9.17
155,arraial do cabo,75,BR,1567691066,100,-22.97,-42.02,68.0,12.75
156,lazaro cardenas,98,MX,1567691066,57,28.39,-105.62,73.99,5.01
157,taitung,76,TW,1567691066,94,22.76,121.15,62.51,4.16
158,douglas,75,US,1567691066,93,58.28,-134.39,51.01,4.09
159,piacabucu,0,BR,1567691067,60,-10.41,-36.43,80.51,7.9
160,hami,88,CN,1567691067,21,42.84,93.51,79.97,20.29
161,coquimbo,90,CL,1567691067,76,-29.95,-71.34,53.6,4.7
162,tanabe,92,JP,1567691067,77,33.73,135.39,80.15,13.4
163,alpena,1,US,1567691068,71,45.06,-83.43,62.01,4.7
164,kysyl-syr,27,RU,1567691068,90,63.9,122.77,40.73,5.77
165,pandan,100,PH,1567691068,81,11.72,122.09,82.13,15.3
166,sumbe,0,AO,1567691068,88,-11.2,13.84,71.33,11.68
167,inhambane,0,MZ,1567690879,50,-23.87,35.38,75.47,9.66
168,copiapo,90,CL,1567691069,62,-27.37,-70.33,55.4,3.36
169,alekseyevsk,32,RU,1567691069,97,57.84,108.35,44.15,5.37
170,meadow lake,75,CA,1567691069,93,54.13,-108.44,55.4,9.17
171,saint-augustin,20,CA,1567691070,82,45.63,-73.98,62.01,2.24
172,sur,0,OM,1567691070,57,22.57,59.53,83.93,1.81
173,rawson,100,AR,1567691013,81,-43.3,-65.11,38.21,12.95
174,kosh-agach,88,RU,1567691070,85,49.99,88.66,39.11,3.74
175,ilo,90,PE,1567691071,88,-17.65,-71.34,62.6,5.82
176,ola,73,RU,1567691071,94,59.58,151.3,52.25,2.93
177,carnarvon,3,ZA,1567691071,20,-30.97,22.13,68.63,12.5
178,dikson,100,RU,1567691071,99,73.51,80.55,42.71,3.87
179,aanekoski,90,FI,1567691072,77,62.6,25.73,60.8,14.99
180,komsomolskiy,40,RU,1567691072,72,67.55,63.78,57.11,11.25
181,salta,90,AR,1567691074,71,-24.79,-65.41,51.8,5.82
182,georgetown,75,GY,1567691074,74,6.8,-58.16,84.2,11.41
183,port hardy,90,CA,1567691075,100,50.7,-127.42,51.8,2.24
184,piploda,100,IN,1567691075,91,23.35,75.43,77.63,7.18
185,gambela,96,ET,1567691075,94,8.25,34.59,73.49,0.85
186,lorengau,100,PG,1567691075,82,-2.02,147.27,78.35,7.09
187,acapulco,40,MX,1567691076,83,16.86,-99.88,78.8,4.7
188,marktoberdorf,75,DE,1567691076,93,47.78,10.62,57.2,8.05
189,likasi,100,CD,1567691077,16,-10.99,26.74,85.37,5.28
190,kiama,35,AU,1567691077,100,-34.67,150.86,62.01,1.12
191,tuatapere,93,NZ,1567691077,93,-46.13,167.69,46.0,3.0
192,saint-leu,0,RE,1567691077,73,-21.15,55.28,77.0,8.05
193,luba,99,PH,1567691077,90,17.32,120.7,76.01,8.5
194,gao,97,ML,1567691077,23,16.28,-0.04,102.65,10.56
195,pontianak,0,ID,1567691078,78,-0.02,109.34,81.59,18.01
196,myanaung,80,MM,1567691078,90,18.28,95.32,75.47,2.33
197,lar,40,IR,1567691078,17,27.66,54.32,107.6,6.93
198,golden,1,US,1567691078,37,39.76,-105.22,72.0,7.27
199,aripuana,81,BR,1567691079,29,-9.17,-60.63,100.67,3.4
200,itoman,75,JP,1567691079,94,26.12,127.67,80.6,29.97
201,sitka,0,US,1567691079,35,37.17,-99.65,81.05,14.56
202,alagoinhas,32,BR,1567691079,52,-12.13,-38.42,82.49,9.04
203,leningradskiy,98,RU,1567691080,92,69.38,178.42,39.29,3.47
204,ilulissat,75,GL,1567691080,56,69.22,-51.1,44.6,9.17
205,oktyabrskoye,0,RU,1567691080,71,56.73,85.44,55.0,4.29
206,nurota,0,UZ,1567691080,21,40.56,65.69,80.6,6.93
207,hobyo,1,SO,1567691081,74,5.35,48.53,78.89,26.96
208,kloulklubed,75,PW,1567691081,83,7.04,134.26,80.6,10.29
209,oktyabrskiy,0,RU,1567691081,77,55.61,37.97,66.99,2.24
210,lata,100,IN,1567691081,97,30.78,78.62,47.57,2.82
211,iqaluit,75,CA,1567691081,70,63.75,-68.52,44.6,4.7
212,sola,98,TZ,1567691082,29,-3.17,33.8,83.93,3.56
213,wukari,76,NG,1567691082,69,7.87,9.78,85.19,6.89
214,cairns,10,AU,1567691082,62,-16.92,145.77,61.0,1.12
215,kodiak,40,US,1567691082,88,39.95,-94.76,68.0,5.82
216,nicolas bravo,90,MX,1567691083,100,24.39,-104.74,59.0,3.36
217,vila franca do campo,40,PT,1567691083,69,37.72,-25.43,75.2,16.11
218,banda aceh,99,ID,1567691083,85,5.56,95.32,82.85,14.85
219,santa maria,0,BR,1567691080,32,-16.02,-48.01,82.99,12.75
220,luderitz,0,NA,1567691084,41,-26.65,15.16,77.0,18.34
221,walvis bay,0,NA,1567691084,55,-22.95,14.51,64.4,10.29
222,hofn,90,IS,1567691084,76,64.25,-15.21,50.0,8.05
223,coihaique,75,CL,1567691084,63,-45.58,-72.07,39.2,3.36
224,najran,40,SA,1567691086,12,17.54,44.22,102.2,6.93
225,port macquarie,90,AU,1567691087,100,-31.43,152.91,52.0,1.5
226,samarai,0,PG,1567691087,82,-10.62,150.67,67.73,5.14
227,hopewell,90,US,1567691087,88,37.3,-77.29,80.6,8.46
228,barcelos,57,BR,1567691088,50,-0.97,-62.93,92.03,5.01
229,husavik,35,CA,1567691088,96,50.56,-96.99,57.99,8.68
230,kirkwood,75,ZA,1567691088,63,-33.4,25.44,60.8,11.41
231,santa maria da vitoria,0,BR,1567691088,17,-13.39,-44.19,93.29,9.4
232,grong,100,NO,1567691088,94,64.47,12.32,48.99,1.01
233,mampong,79,GH,1567691088,70,7.06,-1.4,82.31,3.65
234,sawtell,0,AU,1567691089,93,-30.38,153.1,55.4,1.12
235,khargone,100,IN,1567691089,80,21.82,75.61,80.69,5.75
236,zomin,88,UZ,1567691089,31,39.96,68.4,68.81,4.47
237,dagda,19,LV,1567691089,71,56.09,27.54,66.65,6.98
238,udachnyy,90,RU,1567691090,93,66.42,112.4,39.2,4.47
239,manggar,0,ID,1567691090,93,-2.88,108.27,73.85,2.93
240,hithadhoo,98,MV,1567691020,79,-0.6,73.08,83.39,13.76
241,nelson bay,6,AU,1567691083,93,-32.72,152.14,64.0,6.93
242,forrest city,0,US,1567691079,94,35.01,-90.79,77.0,4.7
243,broome,0,GB,1567691091,42,52.47,1.45,66.0,12.75
244,morristown,1,US,1567690864,94,36.21,-83.29,75.99,5.82
245,nouadhibou,47,MR,1567691091,46,20.93,-17.03,91.4,9.17
246,kirakira,100,SB,1567691092,78,-10.46,161.92,72.59,12.35
247,egvekinot,89,RU,1567691092,94,66.32,-179.17,37.67,4.36
248,bashtanka,86,UA,1567691092,43,47.4,32.45,74.93,3.83
249,nishihara,75,JP,1567691092,83,35.74,139.53,82.4,3.36
250,bambous virieux,40,MU,1567691093,69,-20.34,57.76,75.2,11.41
251,east london,75,ZA,1567691093,67,-33.02,27.91,59.0,11.41
252,lannion,75,FR,1567691093,55,48.73,-3.46,64.0,12.75
253,bayan,100,CN,1567691093,63,36.1,102.26,58.91,2.26
254,camacari,75,BR,1567691093,78,-12.7,-38.32,80.6,8.05
255,garissa,52,KE,1567691093,39,-0.46,39.64,86.99,19.46
256,jevargi,98,IN,1567691094,79,17.02,76.77,77.09,23.47
257,antofagasta,75,CL,1567691094,71,-23.65,-70.4,66.99,6.93
258,kieta,100,PG,1567691094,78,-6.22,155.63,76.73,10.04
259,riachao,0,BR,1567690852,22,-7.36,-46.62,99.23,9.01
260,manzhouli,78,CN,1567691094,90,49.6,117.43,58.73,5.23
261,zhigansk,25,RU,1567691095,92,66.77,123.37,40.19,6.98
262,cabo san lucas,5,MX,1567691032,78,22.89,-109.91,81.0,6.51
263,jinchang,72,CN,1567691018,39,38.52,102.19,68.99,7.11
264,sarai,40,IN,1567691095,66,25.78,85.28,89.6,8.05
265,namibe,99,AO,1567691096,84,-15.19,12.15,65.21,10.09
266,digby,0,CA,1567691096,34,44.62,-65.76,60.01,5.01
267,ballina,40,IE,1567691096,76,54.11,-9.15,61.0,18.34
268,mount gambier,40,AU,1567691098,87,-37.83,140.78,46.4,8.05
269,otacilio costa,100,BR,1567690843,99,-27.48,-50.12,51.01,4.0
270,mahebourg,40,MU,1567691099,69,-20.41,57.7,75.2,11.41
271,omboue,94,GA,1567691099,87,-1.57,9.26,75.11,15.21
272,snezhnogorsk,40,RU,1567691099,51,69.19,33.23,60.8,4.47
273,ugoofaaru,100,MV,1567691099,77,5.67,73.0,83.21,10.07
274,batemans bay,99,AU,1567691100,75,-35.71,150.18,57.99,2.35
275,datong,36,CN,1567691100,42,40.09,113.3,70.43,5.88
276,mazatlan,75,MX,1567691004,94,23.22,-106.42,82.0,2.66
277,grindavik,90,IS,1567691100,87,63.84,-22.43,51.8,4.7
278,bethel,90,US,1567691100,93,60.79,-161.76,51.8,11.41
279,les cayes,48,HT,1567691101,76,18.19,-73.75,83.93,13.42
280,grandview,1,US,1567691006,88,38.89,-94.53,72.0,4.7
281,rocha,0,UY,1567690946,59,-34.48,-54.34,49.55,8.75
282,pevek,54,RU,1567691101,77,69.7,170.27,42.89,6.78
283,altamira,75,BR,1567691102,70,-3.2,-52.21,84.2,10.29
284,cockburn town,6,TC,1567691102,79,21.46,-71.14,83.21,14.14
285,eisenstadt,0,AT,1567691102,41,47.85,16.52,84.0,6.93
286,tanout,0,NE,1567691102,25,14.97,8.88,99.41,5.84
287,acari,2,BR,1567691103,30,-6.44,-36.64,92.93,13.35
288,sao filipe,87,CV,1567691103,84,14.9,-24.5,79.25,13.11
289,cutervo,34,PE,1567691103,45,-6.38,-78.82,70.79,10.76
290,cortez,1,US,1567691011,76,37.35,-108.58,62.01,4.7
291,roma,0,IT,1567691088,33,41.89,12.48,87.8,3.36
292,bouna,82,CI,1567691104,70,9.27,-3.0,83.93,4.63
293,anshun,66,CN,1567691104,93,26.25,105.93,63.77,2.91
294,cherskiy,10,RU,1567691105,68,68.75,161.3,40.37,7.16
295,cidreira,86,BR,1567691105,50,-30.17,-50.22,58.55,8.16
296,kendari,21,ID,1567691106,93,-3.99,122.52,72.05,0.43
297,haines junction,47,CA,1567691107,86,60.75,-137.51,35.51,1.01
298,escobal,40,CR,1567691107,78,9.93,-84.43,73.0,2.24
299,stryn,75,NO,1567691108,66,61.9,6.72,53.01,11.41
300,kaitong,0,CN,1567691109,84,44.81,123.15,68.99,5.06
301,meulaboh,88,ID,1567691109,81,4.14,96.13,83.21,9.98
302,kavaratti,46,IN,1567691109,82,10.57,72.64,82.67,19.37
303,the valley,20,AI,1567691040,70,18.22,-63.06,88.0,11.41
304,jungapeo,1,MX,1567691110,93,19.46,-100.49,60.01,1.45
305,rylsk,50,RU,1567691110,65,51.57,34.68,73.67,2.71
306,yaan,96,NG,1567691110,83,7.38,8.57,80.15,2.84
307,helong,0,CN,1567691111,93,25.94,116.13,74.21,2.89
308,novyy urengoy,71,RU,1567691111,75,66.08,76.63,53.87,8.9
309,kota tinggi,75,MY,1567691111,88,1.73,103.9,84.2,5.91
310,portland,20,US,1567690682,51,43.66,-70.25,64.0,6.93
311,kiunga,83,PG,1567691113,99,-6.12,141.3,69.71,2.55
312,quelimane,20,MZ,1567691114,51,-17.88,36.89,80.6,11.41
313,belyy yar,0,RU,1567691114,87,53.6,91.39,51.8,2.24
314,hasaki,75,JP,1567691114,94,35.73,140.83,75.2,2.24
315,hervey bay,0,AU,1567691115,88,-25.3,152.85,66.2,10.29
316,xining,95,CN,1567691115,68,36.62,101.77,54.77,3.85
317,ngunguru,100,NZ,1567691115,80,-35.62,174.5,54.0,21.0
318,constitucion,90,MX,1567691116,100,23.99,-104.67,59.0,3.36
319,plettenberg bay,100,ZA,1567691116,70,-34.05,23.37,57.29,12.77
320,parana,90,BR,1567691116,100,-7.52,-72.89,73.4,2.24
321,fairbanks,40,US,1567690905,86,64.84,-147.72,45.0,3.36
322,vitim,100,RU,1567691117,98,59.44,112.57,49.55,4.16
323,skjervoy,0,NO,1567691117,66,70.03,20.97,53.6,5.82
324,kahului,1,US,1567691117,74,20.89,-156.47,80.6,14.99
325,lukovetskiy,40,RU,1567691117,82,64.29,41.92,59.0,6.71
326,miracema do tocantins,0,BR,1567691117,18,-9.56,-48.4,101.21,6.44
327,hovd,75,NO,1567691042,81,63.83,10.7,51.8,27.51
328,harper,1,US,1567691118,82,30.3,-99.24,75.99,10.42
329,klaksvik,75,FO,1567691118,93,62.23,-6.59,48.2,9.17
330,taoru,75,IN,1567691118,66,28.22,76.95,91.0,3.36
331,mount isa,0,AU,1567691119,29,-20.73,139.49,62.6,12.5
332,ilhabela,100,BR,1567691119,87,-23.78,-45.36,64.31,20.07
333,lompoc,90,US,1567691119,93,34.64,-120.46,59.0,3.36
334,aquiraz,40,BR,1567691119,58,-3.9,-38.39,84.2,20.8
335,oistins,40,BB,1567691120,74,13.07,-59.53,86.0,9.17
336,porto novo,75,BR,1567691120,77,-23.68,-45.44,64.4,6.93
337,atar,44,MR,1567691120,23,20.52,-13.05,103.19,2.82
338,muros,40,ES,1567691120,56,42.77,-9.06,81.0,14.99
339,rabo de peixe,40,PT,1567691120,69,37.8,-25.58,75.2,16.11
340,togur,100,RU,1567691121,84,58.36,82.83,49.19,5.37
341,nome,1,US,1567691121,83,30.04,-94.42,81.0,3.58
342,mayumba,100,GA,1567691121,85,-3.44,10.65,73.67,10.36
343,sabha,0,LY,1567691121,16,27.03,14.43,95.99,4.27
344,muroto,63,JP,1567691122,92,33.37,134.14,73.31,5.68
345,kabare,97,RW,1567691122,76,-1.65,29.38,65.75,2.01
346,khandbari,96,NP,1567691122,95,27.38,87.21,58.73,0.27
347,santa lucia,20,IT,1567691122,35,41.98,12.66,87.8,4.7
348,sao felix do xingu,0,BR,1567691123,28,-6.64,-51.99,100.49,5.84
349,avera,1,US,1567691123,74,33.19,-82.53,81.0,14.99
350,teguldet,87,RU,1567691123,93,57.31,88.17,47.75,3.96
351,preobrazheniye,100,RU,1567691124,86,42.9,133.91,61.97,2.35
352,havre-saint-pierre,20,CA,1567691124,81,50.23,-63.6,51.8,21.92
353,kumba,100,CM,1567691126,83,4.64,9.44,79.25,6.73
354,noumea,90,NC,1567691088,82,-22.28,166.46,73.0,4.7
355,anagni,40,IT,1567691126,45,41.74,13.15,87.8,2.24
356,tilichiki,0,RU,1567691127,79,60.47,166.1,39.29,2.35
357,iisalmi,0,FI,1567691127,59,63.56,27.19,64.4,18.34
358,surandai,100,IN,1567691127,93,8.97,77.4,73.67,1.99
359,tessalit,24,ML,1567691128,10,20.2,1.01,108.23,8.21
360,otane,100,NZ,1567691128,95,-39.89,176.62,46.99,5.01
361,vientiane,75,LA,1567691128,100,17.96,102.61,80.6,2.24
362,dingle,87,PH,1567691128,86,11.0,122.67,74.93,5.37
363,terra santa,43,BR,1567691128,40,-2.1,-56.49,95.81,6.62
364,west bay,20,CA,1567691129,93,49.34,-123.21,62.01,2.24
365,atikokan,74,CA,1567691129,78,48.76,-91.62,57.29,6.51
366,onega,100,RU,1567691129,76,63.91,38.09,61.25,11.45
367,takab,0,IR,1567691130,12,36.4,47.11,70.79,8.97
368,quatre cocos,40,MU,1567691130,69,-20.21,57.76,75.2,11.41
369,nizhnyaya tavda,0,RU,1567691130,92,57.67,66.17,49.91,3.94
370,la ronge,90,CA,1567691130,87,55.1,-105.3,53.6,9.17
371,yerbogachen,100,RU,1567691130,93,61.28,108.01,43.97,6.76
372,fuzhou,20,CN,1567691131,69,26.08,119.3,82.4,11.18
373,ketchikan,90,US,1567691131,93,55.34,-131.65,53.6,4.5
374,orlik,20,PL,1567691131,63,53.95,17.74,70.0,12.75
375,guerrero negro,0,MX,1567691132,84,27.97,-114.04,72.05,1.05
376,sharlyk,37,RU,1567691132,78,52.93,54.74,55.31,11.05
377,longyearbyen,0,NO,1567691132,74,78.22,15.63,33.8,3.36
378,mango,99,CF,1567691132,92,4.65,22.36,78.71,3.02
379,abu dhabi,0,AE,1567690980,56,24.47,54.37,100.4,10.29
380,lincoln,75,GB,1567690970,48,53.23,-0.54,64.0,11.41
381,karratha,0,AU,1567691132,57,-20.74,116.85,65.57,12.3
382,pemba,20,MZ,1567691133,74,-12.97,40.52,80.6,12.75
383,iquitos,75,PE,1567691133,319,-3.75,-73.25,42.8,4.7
384,codrington,90,AU,1567691133,82,-28.95,153.24,64.4,3.76
385,lagoa,20,PT,1567691133,48,37.14,-8.45,87.01,9.17
386,ponta delgada,40,PT,1567691133,69,37.73,-25.67,75.2,16.11
387,tazovskiy,100,RU,1567691134,78,67.47,78.7,50.63,9.71
388,darovskoy,100,RU,1567691134,82,58.77,47.96,57.83,2.39
389,caruray,100,PH,1567691134,77,10.31,119.01,82.85,7.0
390,ranong,100,TH,1567691113,80,9.96,98.62,81.77,11.23
391,dukat,0,AL,1567691134,38,40.25,19.57,84.99,5.01
392,beloha,0,MG,1567691134,48,-25.17,45.06,75.65,10.6
393,maniitsoq,100,GL,1567691135,96,65.42,-52.9,40.19,18.79
394,catio,4,GW,1567691135,78,11.28,-15.25,82.13,12.84
395,thinadhoo,66,MV,1567691135,77,0.53,72.93,83.21,10.92
396,tarko-sale,98,RU,1567691135,87,64.92,77.78,53.01,6.26
397,rock sound,0,BS,1567691084,80,24.9,-76.2,84.11,15.03
398,pocone,50,BR,1567691136,25,-16.26,-56.62,101.93,5.28
399,terrace bay,75,CA,1567691136,93,48.78,-87.1,55.4,2.24
400,bonavista,88,CA,1567691064,76,48.65,-53.11,66.0,5.01
401,tabou,69,CI,1567691138,79,4.42,-7.36,79.25,9.33
402,mandera,23,ET,1567691138,36,3.94,41.86,88.79,15.21
403,swellendam,75,ZA,1567691064,55,-34.02,20.44,60.8,23.04
404,malangwa,86,CD,1567691139,41,-2.84,17.57,91.85,3.33
405,adilcevaz,40,TR,1567691139,29,38.8,42.73,79.0,11.41
406,rio grande,0,BR,1567691139,62,-32.03,-52.1,52.0,11.41
407,sezana,5,SI,1567691140,35,45.71,13.87,87.8,13.87
408,batagay,48,RU,1567691140,94,67.65,134.64,37.31,1.14
409,casper,1,US,1567690968,44,42.87,-106.31,57.2,8.05
410,dzaoudzi,0,YT,1567691141,74,-12.79,45.27,82.4,9.17
411,huarmey,100,PE,1567691141,90,-10.07,-78.15,60.35,9.82
412,madinat sittah uktubar,0,EG,1567691141,32,29.82,31.05,95.0,10.29
413,krasnyy chikoy,71,RU,1567691141,80,50.36,108.75,55.31,4.03
414,ciudad bolivar,5,VE,1567691142,58,8.12,-63.55,90.41,8.3
415,bafoulabe,13,ML,1567691142,56,13.81,-10.83,91.13,4.7
416,altamirano,90,AR,1567691142,65,-35.36,-58.15,51.01,13.87
417,bandarbeyla,24,SO,1567691142,67,9.49,50.81,79.25,29.19
418,thompson,75,CA,1567691143,51,55.74,-97.86,32.0,3.31
419,anadyr,75,RU,1567691143,93,64.73,177.51,42.8,2.24
420,dwarka,75,IN,1567691143,66,28.58,77.04,91.0,3.36
421,kalmunai,77,LK,1567691143,69,7.42,81.82,80.15,4.41
422,jiuquan,72,CN,1567691143,20,39.73,98.49,77.09,6.17
423,hualmay,100,PE,1567691144,90,-11.1,-77.61,60.53,9.73
424,batagay-alyta,100,RU,1567691144,94,67.8,130.41,36.77,0.83
425,arauco,90,CL,1567691144,93,-37.25,-73.32,50.0,10.29
426,avdon,40,IL,1567691145,58,33.05,35.18,91.4,10.29
427,pangnirtung,75,CA,1567691145,61,66.15,-65.72,46.4,2.24
428,shingu,74,JP,1567691145,97,33.72,135.99,67.91,6.11
429,novska,40,HR,1567691145,50,45.34,16.98,77.0,4.7
430,salinopolis,17,BR,1567691145,78,-0.61,-47.36,80.51,17.43
431,palizada,5,MX,1567691146,78,18.25,-92.09,82.4,18.34
432,port blair,75,IN,1567691146,88,11.67,92.75,80.6,13.87
433,olinda,90,AU,1567691146,76,-37.84,145.39,57.2,3.36
434,buchanan,75,LR,1567691146,83,5.88,-10.05,84.2,6.93
435,springbok,0,ZA,1567691147,25,-29.67,17.88,79.25,17.2
436,port hedland,3,AU,1567691147,82,-20.31,118.58,68.0,6.93
437,kuruman,100,ZA,1567691147,16,-27.46,23.43,80.01,7.76
438,half moon bay,90,US,1567691147,100,37.46,-122.43,63.0,9.17
439,kvarkeno,73,RU,1567691147,65,52.08,59.73,54.59,5.77
440,george town,75,MY,1567691148,79,5.42,100.33,84.2,3.89
441,saskylakh,100,RU,1567691148,65,71.97,114.09,39.11,12.77
442,davila,100,PH,1567691148,82,18.47,120.58,82.13,29.77
443,diedorf,90,DE,1567691148,71,48.35,10.78,62.01,8.05
444,chuy,78,UY,1567691149,58,-33.69,-53.46,49.01,6.15
445,kolondieba,65,ML,1567691151,76,11.09,-6.89,83.21,4.85
446,irbeyskoye,0,RU,1567691151,82,55.64,95.45,47.57,3.13
447,teknaf,100,BD,1567691151,82,20.86,92.31,83.39,17.6
448,ankara,75,TR,1567691151,33,39.92,32.85,81.0,5.82
449,lakes entrance,100,AU,1567691152,91,-37.88,147.99,48.99,9.31
450,bom jesus,0,BR,1567691152,22,-9.08,-44.36,97.97,6.51
451,agapovka,90,RU,1567691152,54,53.3,59.13,57.2,13.42
452,tiznit,0,MA,1567691152,77,29.7,-9.73,68.99,5.12
453,helena,1,US,1567690946,54,46.59,-112.04,54.0,1.48
454,mastic beach,1,US,1567691153,63,40.77,-72.85,68.0,6.93
455,bayji,0,IQ,1567691153,12,34.93,43.49,99.41,5.3
456,abonnema,100,NG,1567691153,75,4.71,6.79,81.41,11.45
457,bathsheba,40,BB,1567691153,74,13.22,-59.52,86.0,9.17
458,marawi,100,PH,1567691154,90,8.0,124.29,79.0,4.0
459,padang,0,ID,1567691154,85,-0.92,100.36,81.77,18.52
460,yulara,0,AU,1567691155,35,-25.24,130.99,69.8,20.8
461,katherine,70,AU,1567691025,31,-14.47,132.26,78.8,10.29
462,biak,100,ID,1567691155,97,-0.91,122.88,63.23,3.47
463,anloga,20,GH,1567691155,74,5.79,0.9,84.2,17.22
464,swan hill,84,AU,1567691155,85,-35.34,143.56,51.17,14.36
465,faya,75,SA,1567691156,9,18.39,42.45,91.4,16.11
466,marzuq,100,YE,1567691156,20,14.4,46.47,90.95,15.97
467,hammerfest,75,NO,1567691156,76,70.66,23.68,53.6,9.17
468,batsfjord,0,NO,1567691157,71,70.63,29.72,53.6,6.93
469,groningen,20,NL,1567691157,55,53.22,6.57,63.0,18.34
470,mazara del vallo,20,IT,1567691157,78,37.65,12.59,82.4,14.99
471,kibala,20,TD,1567691158,62,9.11,18.35,87.8,6.93
472,miri,24,NG,1567691158,44,10.31,9.75,91.13,5.68
473,portobelo,75,PA,1567691158,94,9.55,-79.65,77.0,4.7
474,labuhan,70,ID,1567691158,84,-2.54,115.51,74.03,2.1
475,miyako,75,JP,1567691158,83,33.63,130.94,82.0,16.11
476,lahaina,1,US,1567691097,74,20.87,-156.68,80.6,14.99
477,khardaha,40,IN,1567691159,89,22.72,88.38,84.2,4.7
478,xinmin,0,CN,1567691159,100,42.0,122.83,69.8,6.71
479,koumac,0,NC,1567691159,70,-20.56,164.28,69.17,15.28
480,bantou,0,CN,1567691160,94,26.22,117.49,70.61,1.86
481,norman wells,90,CA,1567691011,100,65.28,-126.83,46.4,3.36
482,pundaguitan,100,PH,1567691160,82,6.37,126.17,82.13,3.47
483,zychlin,0,PL,1567691160,36,52.24,19.63,80.01,11.41
484,baia,90,BR,1567691160,62,-26.98,-48.74,59.0,8.05
485,san ramon,40,NI,1567691160,88,12.92,-85.84,68.0,4.7
486,carmen,90,PH,1567691147,83,7.36,125.71,82.4,1.01
487,manokwari,87,ID,1567691161,80,-0.87,134.08,72.95,5.48
488,santo antonio do ica,39,BR,1567691161,52,-3.1,-67.94,91.31,3.87
489,isla mujeres,20,MX,1567690925,100,21.23,-86.73,82.4,4.92
490,quang ngai,99,VN,1567691164,93,15.12,108.8,72.41,2.48
491,aksarka,61,RU,1567691164,82,66.56,67.8,54.59,10.22
492,celestun,0,MX,1567691164,80,20.87,-90.4,80.15,6.71
493,miquelon,90,PM,1567691165,100,47.1,-56.38,62.6,24.16
494,bowen,0,AU,1567691165,81,-20.01,148.25,59.0,1.12
495,beyneu,0,KZ,1567691165,29,45.32,55.19,68.09,8.86
496,key west,75,US,1567691165,93,47.93,-96.78,62.6,10.29
497,vostok,0,RU,1567691166,94,46.45,135.83,60.17,3.96
498,yongan,69,CN,1567691166,59,39.7,113.69,63.95,3.67
499,novoanninskiy,0,RU,1567691166,32,50.53,42.67,75.99,1.99
500,bukachacha,100,RU,1567691166,80,52.99,116.91,51.53,2.21
501,villa carlos paz,40,AR,1567691167,49,-31.42,-64.5,50.0,11.41
502,kolokani,100,ML,1567691167,62,13.58,-8.03,88.79,1.77
503,petrolina de goias,0,BR,1567691167,18,-16.09,-49.34,87.8,13.87
504,bukama,3,CD,1567691168,16,-9.2,25.85,95.99,5.03
505,srednekolymsk,100,RU,1567691168,52,67.46,153.71,46.67,11.45
506,belaya gora,100,RU,1567691168,70,68.54,146.19,43.43,5.41
507,rosario oeste,11,BR,1567691168,17,-14.84,-56.43,106.25,3.29
508,puri,86,ID,1567691168,80,-7.54,112.45,71.87,13.35
509,canon city,1,US,1567691169,93,39.46,-117.13,46.4,3.71
510,moree,0,AU,1567691169,19,-29.46,149.84,57.2,10.29
511,putina,75,PE,1567691169,75,-14.91,-69.87,44.6,1.12
512,salalah,75,OM,1567691170,83,17.01,54.1,82.4,13.87
513,hidalgotitlan,40,MX,1567691170,83,17.78,-94.63,82.4,6.06
514,aitape,100,PG,1567691170,85,-3.15,142.36,73.85,3.31
515,touros,75,BR,1567691170,69,-5.2,-35.46,82.4,9.17
516,ust-kut,18,RU,1567691170,95,56.78,105.75,43.43,5.23
517,chapais,90,CA,1567691171,87,49.78,-74.86,46.4,10.29
518,mombaca,10,BR,1567691171,36,-5.74,-39.63,90.77,9.33
519,boende,100,CD,1567691171,56,-0.28,20.88,85.19,0.78
520,el estor,59,GT,1567691171,60,15.53,-89.34,85.19,1.61
521,grand gaube,40,MU,1567691172,69,-20.01,57.66,75.2,11.41
522,san jeronimo,90,PE,1567691172,328,-13.65,-73.37,37.4,7.0
523,mayo,40,CA,1567691173,93,63.59,-135.9,35.6,2.24
524,weatherford,1,US,1567690940,73,32.76,-97.8,81.0,4.7
525,stykkisholmur,100,IS,1567691173,77,65.08,-22.73,50.63,11.32
526,centralia,1,US,1567691173,100,46.72,-122.96,59.0,3.36
527,ornskoldsvik,75,SE,1567691174,82,63.29,18.72,60.8,13.87
528,torbay,75,CA,1567691174,83,47.66,-52.73,71.01,18.34
529,keila,20,EE,1567691177,56,59.31,24.42,69.8,16.11
530,miaray,100,PH,1567691177,24,7.57,125.04,77.0,1.01
531,tommot,94,RU,1567691177,87,58.97,126.27,46.67,2.01
532,leh,0,IN,1567691177,20,34.16,77.58,52.97,4.83
533,alice springs,48,AU,1567691178,11,-23.7,133.88,77.0,9.17
534,xingcheng,4,CN,1567691178,82,40.62,120.71,67.37,4.88
535,voh,0,NC,1567691178,69,-20.95,164.69,67.37,12.01
536,necochea,100,AR,1567691179,60,-38.55,-58.74,46.0,5.01
